[
    {
        "artist": "Alberto Giacometti",
        "year": "1901",
        "city": "Saint Moritz",
        "country": "Switzerland",
        "lat": 46.49937,
        "lon": 9.84327
    },
    {
        "artist": "Alberto Giacometti",
        "year": "1966",
        "city": "Chur",
        "country": "Switzerland",
        "lat": 47.36667,
        "lon": 8.55
    },
    {
        "artist": "Amrita Sher-Gil",
        "year": "1941",
        "city": "Lahore",
        "country": "Pakistan",
        "lat": 31.558,
        "lon": 74.35071
    },
    {
        "artist": "Amrita Sher-Gil",
        "year": "1913",
        "city": "Budapest",
        "country": "Hungary",
        "lat": 47.49801,
        "lon": 19.03991
    },
    {
        "artist": "Andy Warhol",
        "year": "1928",
        "city": "Pittsburgh",
        "country": "United States",
        "lat": 40.44062,
        "lon": -79.99589
    },
    {
        "artist": "Andy Warhol",
        "year": "1987",
        "city": "New York",
        "country": "United States",
        "lat": 40.71427,
        "lon": -74.00597
    },
    {
        "artist": "Antoni Tàpies",
        "year": "1923",
        "city": "Barcelona",
        "country": "Spain",
        "lat": 41.38879,
        "lon": 2.15899
    },
    {
        "artist": "Antoni Tàpies",
        "year": "2012",
        "city": "Barcelona",
        "country": "Spain",
        "lat": 41.38879,
        "lon": 2.15899
    },
    {
        "artist": "Arpita Singh",
        "year": "1937",
        "city": "Baranagar",
        "country": "India",
        "lat": 22.643333,
        "lon": 88.365278
    },
    {
        "artist": "Brett Whiteley",
        "year": "1939",
        "city": "Sydney",
        "country": "Australia",
        "lat": -33.86785,
        "lon": 151.20732
    },
    {
        "artist": "Brett Whiteley",
        "year": "1992",
        "city": "Thirroul",
        "country": "Australia",
        "lat": -34.316667,
        "lon": 150.916667
    },
    {
        "artist": "Christian Krohg",
        "year": "1852",
        "city": "Oslo",
        "country": "Norway",
        "lat": 59.91273,
        "lon": 10.74609
    },
    {
        "artist": "Christian Krohg",
        "year": "1925",
        "city": "Oslo",
        "country": "Norway",
        "lat": 59.91273,
        "lon": 10.74609
    },
    {
        "artist": "Claude Monet",
        "year": "1840",
        "city": "Paris",
        "country": "France",
        "lat": 48.85341,
        "lon": 2.3488
    },
    {
        "artist": "Claude Monet",
        "year": "1926",
        "city": "Giverny",
        "country": "France",
        "lat": 49.066667,
        "lon": 1.533333
    },
    {
        "artist": "Constantin Brancusi",
        "year": "1876",
        "city": "Hobita",
        "country": "Romania",
        "lat": 45.04835897706265,
        "lon": 23.05712699878115
    },
    {
        "artist": "Constantin Brancusi",
        "year": "1857",
        "city": "Paris",
        "country": "France",
        "lat": 48.85341,
        "lon": 2.3488
    },
    {
        "artist": "Damien Hirst",
        "year": "1965",
        "city": "Bristol",
        "country": "United Kingdom",
        "lat": 51.45523,
        "lon": -2.59665
    },
    {
        "artist": "David Alfaro Siqueiros",
        "year": "1896",
        "city": "Camargo",
        "country": "Mexico",
        "lat": 27.67842,
        "lon": -105.17136
    },
    {
        "artist": "David Alfaro Siqueiros",
        "year": "1974",
        "city": "Cuernavaca",
        "country": "Mexico",
        "lat": 18.9261,
        "lon": -99.23075
    },
    {
        "artist": "Diego Rivera",
        "year": "1886",
        "city": "Guanajuato",
        "country": "Mexico",
        "lat": 21.01858,
        "lon": -101.2591
    },
    {
        "artist": "Diego Rivera",
        "year": "1957",
        "city": "Mexico City",
        "country": "Mexico",
        "lat": 19.42847,
        "lon": -99.12766
    },
    {
        "artist": "Diego Velázquez",
        "year": "1599",
        "city": "Seville",
        "country": "Spain",
        "lat": 37.38283,
        "lon": -5.97317
    },
    {
        "artist": "Diego Velázquez",
        "year": "1660",
        "city": "Madrid",
        "country": "Spain",
        "lat": 40.4165,
        "lon": -3.70256
    },
    {
        "artist": "Donatello",
        "year": "1386",
        "city": "Florence",
        "country": "Italy",
        "lat": 43.77925,
        "lon": 11.24626
    },
    {
        "artist": "Donatello",
        "year": "1466",
        "city": "Florence",
        "country": "Italy",
        "lat": 43.77925,
        "lon": 11.24626
    },
    {
        "artist": "Edgar Degas",
        "year": "1834",
        "city": "Paris",
        "country": "France",
        "lat": 48.85341,
        "lon": 2.3488
    },
    {
        "artist": "Edgar Degas",
        "year": "1917",
        "city": "Paris",
        "country": "France",
        "lat": 48.85341,
        "lon": 2.3488
    },
    {
        "artist": "Édouard Manet",
        "year": "1832",
        "city": "Paris",
        "country": "France",
        "lat": 48.85341,
        "lon": 2.3488
    },
    {
        "artist": "Édouard Manet",
        "year": "1883",
        "city": "Paris",
        "country": "France",
        "lat": 48.85341,
        "lon": 2.3488
    },
    {
        "artist": "Edvard Munch",
        "year": "1863",
        "city": "Ådalsbruk",
        "country": "Norway",
        "lat": 60.79657639559178,
        "lon": 11.310407665020445
    },
    {
        "artist": "Edvard Munch",
        "year": "1944",
        "city": "Oslo",
        "country": "Norway",
        "lat": 59.91273,
        "lon": 10.74609
    },
    {
        "artist": "Egon Schiele",
        "year": "1890",
        "city": "Tulln",
        "country": "Austria",
        "lat": 48.32829,
        "lon": 16.05858
    },
    {
        "artist": "Egon Schiele",
        "year": "1918",
        "city": "Vienna",
        "country": "Austria",
        "lat": 48.20849,
        "lon": 16.37208
    },
    {
        "artist": "El Greco",
        "year": "1541",
        "city": "Heraklion",
        "country": "Greece",
        "lat": 35.32787,
        "lon": 25.14341
    },
    {
        "artist": "El Greco",
        "year": "1614",
        "city": "Toledo",
        "country": "Spain",
        "lat": 39.8581,
        "lon": -4.02263
    },
    {
        "artist": "Emil Nolde",
        "year": "1867",
        "city": "Schleswig",
        "country": "Germany",
        "lat": 54.52156,
        "lon": 9.5586
    },
    {
        "artist": "Emil Nolde",
        "year": "1956",
        "city": "Neukirchen",
        "country": "Germany",
        "lat": 50.86906,
        "lon": 9.34655
    },
    {
        "artist": "Erich Heckel",
        "year": "1883",
        "city": "Döbeln",
        "country": "Germany",
        "lat": 51.1221,
        "lon": 13.11027
    },
    {
        "artist": "Erich Heckel",
        "year": "1970",
        "city": "Radolfzell",
        "country": "Germany",
        "lat": 47.74194,
        "lon": 8.97098
    },
    {
        "artist": "Francis Bacon",
        "year": "1909",
        "city": "Dublin",
        "country": "Ireland",
        "lat": 53.33306,
        "lon": -6.24889
    },
    {
        "artist": "Francis Bacon",
        "year": "1992",
        "city": "Madrid",
        "country": "Spain",
        "lat": 40.4165,
        "lon": -3.70256
    },
    {
        "artist": "Frida Kahlo",
        "year": "1907",
        "city": "Mexico City",
        "country": "Mexico",
        "lat": 19.42847,
        "lon": -99.12766
    },
    {
        "artist": "Frida Kahlo",
        "year": "1954",
        "city": "Mexico City",
        "country": "Mexico",
        "lat": 19.42847,
        "lon": -99.12766
    },
    {
        "artist": "Georges Seurat",
        "year": "1859",
        "city": "Paris",
        "country": "France",
        "lat": 48.85341,
        "lon": 2.3488
    },
    {
        "artist": "Georges Seurat",
        "year": "1891",
        "city": "Paris",
        "country": "France",
        "lat": 48.85341,
        "lon": 2.3488
    },
    {
        "artist": "Ghiberthi",
        "year": "1378",
        "city": "Pelago",
        "country": "Italy",
        "lat": 43.77255,
        "lon": 11.50148
    },
    {
        "artist": "Ghiberthi",
        "year": "1455",
        "city": "Florence",
        "country": "Italy",
        "lat": 43.77925,
        "lon": 11.24626
    },
    {
        "artist": "Giorgio de Chirico",
        "year": "1888",
        "city": "Volos",
        "country": "Greece",
        "lat": 39.36103,
        "lon": 22.94248
    },
    {
        "artist": "Giorgio de Chirico",
        "year": "1978",
        "city": "Rome",
        "country": "Italy",
        "lat": 41.89193,
        "lon": 12.51133
    },
    {
        "artist": "Gustav Klimt",
        "year": "1862",
        "city": "Vienna",
        "country": "Austria",
        "lat": 48.20849,
        "lon": 16.37208
    },
    {
        "artist": "Gustav Klimt",
        "year": "1918",
        "city": "Vienna",
        "country": "Austria",
        "lat": 48.20849,
        "lon": 16.37208
    },
    {
        "artist": "Henri de Toulouse-Lautrec",
        "year": "1864",
        "city": "Albi",
        "country": "France",
        "lat": 43.9298,
        "lon": 2.148
    },
    {
        "artist": "Henri de Toulouse-Lautrec",
        "year": "1901",
        "city": "Bordeaux",
        "country": "France",
        "lat": 44.84044,
        "lon": -0.5805
    },
    {
        "artist": "Henri Émile Benoît Matisse",
        "year": "1869",
        "city": "Lille",
        "country": "France",
        "lat": 50.63297,
        "lon": 3.05858
    },
    {
        "artist": "Henri Émile Benoît Matisse",
        "year": "1954",
        "city": "Nice",
        "country": "France",
        "lat": 43.70313,
        "lon": 7.26608
    },
    {
        "artist": "J.M.W Turner",
        "year": "1775",
        "city": "London",
        "country": "United Kingdom",
        "lat": 51.50853,
        "lon": -0.12574
    },
    {
        "artist": "J.M.W Turner",
        "year": "1851",
        "city": "London",
        "country": "United Kingdom",
        "lat": 51.50853,
        "lon": -0.12574
    },
    {
        "artist": "Jasper Johns",
        "year": "1930",
        "city": "Augusta",
        "country": "United States",
        "lat": 33.47097,
        "lon": -81.97484
    },
    {
        "artist": "Jean Dubuffet",
        "year": "1901",
        "city": "Rouen",
        "country": "France",
        "lat": 49.44313,
        "lon": 1.09932
    },
    {
        "artist": "Jean Dubuffet",
        "year": "1985",
        "city": "Paris",
        "country": "France",
        "lat": 48.85341,
        "lon": 2.3488
    },
    {
        "artist": "Jean-Antoine Watteau",
        "year": "1684",
        "city": "Valenciennes",
        "country": "France",
        "lat": 50.35,
        "lon": 3.53333
    },
    {
        "artist": "Jean-Antoine Watteau",
        "year": "1721",
        "city": "Paris",
        "country": "France",
        "lat": 48.85341,
        "lon": 2.3488
    },
    {
        "artist": "Jeong Seon",
        "year": "1676",
        "city": "Seoul",
        "country": "South Korea",
        "lat": 37.566,
        "lon": 126.9784
    },
    {
        "artist": "Jeong Seon",
        "year": "1759",
        "city": "Seoul",
        "country": "South Korea",
        "lat": 37.566,
        "lon": 126.9784
    },
    {
        "artist": "John Baldessari",
        "year": "1931",
        "city": "National City",
        "country": "United States",
        "lat": 32.67811,
        "lon": -117.0992
    },
    {
        "artist": "John Baldessari",
        "year": "2020",
        "city": "Los Angeles",
        "country": "United States",
        "lat": 34.05223,
        "lon": -118.24368
    },
    {
        "artist": "John Olsen",
        "year": "1928",
        "city": "Newcastle",
        "country": "Australia",
        "lat": -32.92715,
        "lon": 151.77647
    },
    {
        "artist": "John Singleton Copley",
        "year": "1738",
        "city": "Boston",
        "country": "United States",
        "lat": 42.35843,
        "lon": -71.05977
    },
    {
        "artist": "John Singleton Copley",
        "year": "1815",
        "city": "London",
        "country": "United Kingdom",
        "lat": 51.50853,
        "lon": -0.12574
    },
    {
        "artist": "John Smibert",
        "year": "1688",
        "city": "Edinburgh",
        "country": "United Kingdom",
        "lat": 55.95206,
        "lon": -3.19648
    },
    {
        "artist": "John Smibert",
        "year": "1751",
        "city": "Boston",
        "country": "United States",
        "lat": 42.35843,
        "lon": -71.05977
    },
    {
        "artist": "Julian Schnabel",
        "year": "1951",
        "city": "New York",
        "country": "United States",
        "lat": 40.71427,
        "lon": -74.00597
    },
    {
        "artist": "Katsushika Hokusai",
        "year": "1760",
        "city": "Tokyo",
        "country": "Japan",
        "lat": 35.6895,
        "lon": 139.69171
    },
    {
        "artist": "Katsushika Hokusai",
        "year": "1849",
        "city": "Tokyo",
        "country": "Japan",
        "lat": 35.6895,
        "lon": 139.69171
    },
    {
        "artist": "Kitagawa Utamaro",
        "year": "1753",
        "city": "Tokyo",
        "country": "Japan",
        "lat": 35.6895,
        "lon": 139.69171
    },
    {
        "artist": "Kitagawa Utamaro",
        "year": "1806",
        "city": "Tokyo",
        "country": "Japan",
        "lat": 35.6895,
        "lon": 139.69171
    },
    {
        "artist": "Leonardo da Vinci",
        "year": "1452",
        "city": "Florence",
        "country": "Italy",
        "lat": 43.77925,
        "lon": 11.24626
    },
    {
        "artist": "Leonardo da Vinci",
        "year": "1519",
        "city": "Tours",
        "country": "France",
        "lat": 47.39484,
        "lon": 0.70398
    },
    {
        "artist": "Malevich",
        "year": "1879",
        "city": "Kyiv",
        "country": "Ukraine",
        "lat": 50.45466,
        "lon": 30.5238
    },
    {
        "artist": "Malevich",
        "year": "1935",
        "city": "Saint Petersburg",
        "country": "Russia",
        "lat": 59.93863,
        "lon": 30.31413
    },
    {
        "artist": "Marcel Duchamp",
        "year": "1887",
        "city": "Rouen",
        "country": "France",
        "lat": 49.44313,
        "lon": 1.09932
    },
    {
        "artist": "Marcel Duchamp",
        "year": "1968",
        "city": "Paris",
        "country": "France",
        "lat": 48.85341,
        "lon": 2.3488
    },
    {
        "artist": "Margaret Rose Preston",
        "year": "1875",
        "city": "Port Adelaide",
        "country": "Australia",
        "lat": -34.85,
        "lon": 138.46667
    },
    {
        "artist": "Margaret Rose Preston",
        "year": "1963",
        "city": "Mosman",
        "country": "Australia",
        "lat": -33.83902,
        "lon": 151.23956
    },
    {
        "artist": "Mary Stevenson Cassatt",
        "year": "1844",
        "city": "Pittsburgh",
        "country": "United States",
        "lat": 40.44062,
        "lon": -79.99589
    },
    {
        "artist": "Mary Stevenson Cassatt",
        "year": "1926",
        "city": "Paris",
        "country": "France",
        "lat": 48.85341,
        "lon": 2.3488
    },
    {
        "artist": "Max Beckmann",
        "year": "1884",
        "city": "Leipzig",
        "country": "Germany",
        "lat": 51.33962,
        "lon": 12.37129
    },
    {
        "artist": "Max Beckmann",
        "year": "1950",
        "city": "New York",
        "country": "United States",
        "lat": 40.71427,
        "lon": -74.00597
    },
    {
        "artist": "Max Ernst",
        "year": "1891",
        "city": "Brühl",
        "country": "Germany",
        "lat": 50.82928,
        "lon": 6.90499
    },
    {
        "artist": "Max Ernst",
        "year": "1976",
        "city": "Paris",
        "country": "France",
        "lat": 48.85341,
        "lon": 2.3488
    },
    {
        "artist": "Max Jacob",
        "year": "1876",
        "city": "Quimper",
        "country": "France",
        "lat": 48,
        "lon": -4.1
    },
    {
        "artist": "Max Jacob",
        "year": "1944",
        "city": "Paris",
        "country": "France",
        "lat": 48.85341,
        "lon": 2.3488
    },
    {
        "artist": "Mi Fu",
        "year": "1051",
        "city": "Taiyuan",
        "country": "China",
        "lat": 37.86944,
        "lon": 112.56028
    },
    {
        "artist": "Mi Fu",
        "year": "1107",
        "city": "Wuhan",
        "country": "China",
        "lat": 30.58333,
        "lon": 114.26667
    },
    {
        "artist": "Michelangelo",
        "year": "1475",
        "city": "Caprese Michelangelo",
        "country": "Italy",
        "lat": 43.633333,
        "lon": 11.983333
    },
    {
        "artist": "Michelangelo",
        "year": "1564",
        "city": "Rome",
        "country": "Italy",
        "lat": 41.89193,
        "lon": 12.51133
    },
    {
        "artist": "Joan Miró",
        "year": "1893",
        "city": "Barcelona",
        "country": "Spain",
        "lat": 41.38879,
        "lon": 2.15899
    },
    {
        "artist": "Joan Miró",
        "year": "1983",
        "city": "Palma",
        "country": "Spain",
        "lat": 39.56939,
        "lon": 2.65024
    },
    {
        "artist": "Amedeo Modigliani",
        "year": "1884",
        "city": "Livorno",
        "country": "Italy",
        "lat": 43.548130110404145,
        "lon": 10.30983402950838
    },
    {
        "artist": "Amedeo Modigliani",
        "year": "1920",
        "city": "Saint-Étienne",
        "country": "France",
        "lat": 45.43389,
        "lon": 4.39
    },
    {
        "artist": "Oscar-Claude Monet",
        "year": "1840",
        "city": "Paris",
        "country": "France",
        "lat": 48.85341,
        "lon": 2.3488
    },
    {
        "artist": "Oscar-Claude Monet",
        "year": "1926",
        "city": "Rouen",
        "country": "France",
        "lat": 49.44313,
        "lon": 1.09932
    },
    {
        "artist": "Oskar Kokoschka",
        "year": "1886",
        "city": "Pöchlarn",
        "country": "Austria",
        "lat": 48.2,
        "lon": 15.2
    },
    {
        "artist": "Oskar Kokoschka",
        "year": "1980",
        "city": "Montreux",
        "country": "Switzerland",
        "lat": 46.43301,
        "lon": 6.91143
    },
    {
        "artist": "Pablo Picasso",
        "year": "1881",
        "city": "Málaga",
        "country": "Spain",
        "lat": 36.72016,
        "lon": -4.42034
    },
    {
        "artist": "Pablo Picasso",
        "year": "1973",
        "city": "Marseille",
        "country": "France",
        "lat": 43.29695,
        "lon": 5.38107
    },
    {
        "artist": "Paul Cézanne",
        "year": "1839",
        "city": "Marseille",
        "country": "France",
        "lat": 43.29695,
        "lon": 5.38107
    },
    {
        "artist": "Paul Cézanne",
        "year": "1906",
        "city": "Marseille",
        "country": "France",
        "lat": 43.29695,
        "lon": 5.38107
    },
    {
        "artist": "Paul Gauguin",
        "year": "1848",
        "city": "Paris",
        "country": "France",
        "lat": 48.85341,
        "lon": 2.3488
    },
    {
        "artist": "Paul Gauguin",
        "year": "1903",
        "city": "Taiohae",
        "country": "French Polynesia",
        "lat": -8.891036253302167,
        "lon": -140.1036821380093
    },
    {
        "artist": "Paul Klee",
        "year": "1879",
        "city": "Bern",
        "country": "Switzerland",
        "lat": 46.94809,
        "lon": 7.44744
    },
    {
        "artist": "Paul Klee",
        "year": "1940",
        "city": "Locarno",
        "country": "Switzerland",
        "lat": 46.17086,
        "lon": 8.79953
    },
    {
        "artist": "Peter Pelham",
        "year": "1695",
        "city": "London",
        "country": "United Kingdom",
        "lat": 51.50853,
        "lon": -0.12574
    },
    {
        "artist": "Peter Pelham",
        "year": "1751",
        "city": "Boston",
        "country": "United States",
        "lat": 42.35843,
        "lon": -71.05977
    },
    {
        "artist": "Raphael",
        "year": "1483",
        "city": "Urbino",
        "country": "Italy",
        "lat": 43.72621,
        "lon": 12.63633
    },
    {
        "artist": "Raphael",
        "year": "1520",
        "city": "Rome",
        "country": "Italy",
        "lat": 41.89193,
        "lon": 12.51133
    },
    {
        "artist": "Rembrandt van Rijn",
        "year": "1606",
        "city": "Leiden",
        "country": "Netherlands",
        "lat": 52.15833,
        "lon": 4.49306
    },
    {
        "artist": "Rembrandt van Rijn",
        "year": "1669",
        "city": "Amsterdam",
        "country": "Netherlands",
        "lat": 52.37403,
        "lon": 4.88969
    },
    {
        "artist": "René François Ghislain Magritte",
        "year": "1898",
        "city": "Lessines",
        "country": "Belgium",
        "lat": 50.71104,
        "lon": 3.83579
    },
    {
        "artist": "René François Ghislain Magritte",
        "year": "1967",
        "city": "Brussels",
        "country": "Belgium",
        "lat": 50.85045,
        "lon": 4.34878
    },
    {
        "artist": "Pierre-Auguste Renoir",
        "year": "1841",
        "city": "Limoges",
        "country": "France",
        "lat": 45.83153,
        "lon": 1.25781
    },
    {
        "artist": "Pierre-Auguste Renoir",
        "year": "1919",
        "city": "Cagnes-sur-Mer",
        "country": "France",
        "lat": 43.66459,
        "lon": 7.15339
    },
    {
        "artist": "S. H. Raza",
        "year": "1922",
        "city": "Mandla",
        "country": "India",
        "lat": 22.59879,
        "lon": 80.37115
    },
    {
        "artist": "S. H. Raza",
        "year": "2016",
        "city": "New Delhi",
        "country": "India",
        "lat": 28.65195,
        "lon": 77.23149
    },
    {
        "artist": "Salvador Dali",
        "year": "1904",
        "city": "Figueres",
        "country": "Spain",
        "lat": 42.26645,
        "lon": 2.96163
    },
    {
        "artist": "Salvador Dali",
        "year": "1989",
        "city": "Figueres",
        "country": "Spain",
        "lat": 42.26645,
        "lon": 2.96163
    },
    {
        "artist": "Satish Gujral",
        "year": "1925",
        "city": "Jhelum",
        "country": "Pakistan",
        "lat": 32.93448,
        "lon": 73.73102
    },
    {
        "artist": "Satish Gujral",
        "year": "2020",
        "city": "New Delhi",
        "country": "India",
        "lat": 28.65195,
        "lon": 77.23149
    },
    {
        "artist": "Shen Zhou",
        "year": "1427",
        "city": "Xiangcheng",
        "country": "China",
        "lat": 33.84703,
        "lon": 113.4778
    },
    {
        "artist": "Shen Zhou",
        "year": "1509",
        "city": "Xiangcheng",
        "country": "China",
        "lat": 33.84703,
        "lon": 113.4778
    },
    {
        "artist": "Titian",
        "year": "1489",
        "city": "Venice",
        "country": "Italy",
        "lat": 45.43713,
        "lon": 12.33265
    },
    {
        "artist": "Titian",
        "year": "1576",
        "city": "Venice",
        "country": "Italy",
        "lat": 45.43713,
        "lon": 12.33265
    },
    {
        "artist": "Tyeb Mehta",
        "year": "1925",
        "city": "Kapadvanj",
        "country": "India",
        "lat": 23.02302,
        "lon": 73.07113
    },
    {
        "artist": "Tyeb Mehta",
        "year": "2009",
        "city": "Mumbai",
        "country": "India",
        "lat": 19.07283,
        "lon": 72.88261
    },
    {
        "artist": "Utagawa Hiroshige",
        "year": "1797",
        "city": "Tokyo",
        "country": "Japan",
        "lat": 35.6895,
        "lon": 139.69171
    },
    {
        "artist": "Utagawa Hiroshige",
        "year": "1858",
        "city": "Tokyo",
        "country": "Japan",
        "lat": 35.6895,
        "lon": 139.69171
    },
    {
        "artist": "Johannes Vermeer",
        "year": "1632",
        "city": "Delft",
        "country": "Netherlands",
        "lat": 52.00667,
        "lon": 4.35556
    },
    {
        "artist": "Johannes Vermeer",
        "year": "1675",
        "city": "Delft",
        "country": "Netherlands",
        "lat": 52.00667,
        "lon": 4.35556
    },
    {
        "artist": "Vincent Willem van Gogh",
        "year": "1853",
        "city": "Zundert",
        "country": "Netherlands",
        "lat": 51.47167,
        "lon": 4.65556
    },
    {
        "artist": "Vincent Willem van Gogh",
        "year": "1890",
        "city": "Paris",
        "country": "France",
        "lat": 48.85341,
        "lon": 2.3488
    },
    {
        "artist": "Wang Hui",
        "year": "1632",
        "city": "Changshu",
        "country": "China",
        "lat": 31.64615,
        "lon": 120.74221
    },
    {
        "artist": "Wang Hui",
        "year": "1717",
        "city": "Changshu",
        "country": "China",
        "lat": 31.64615,
        "lon": 120.74221
    },
    {
        "artist": "Wang Shimin",
        "year": "1592",
        "city": "Taicang",
        "country": "China",
        "lat": 31.44778,
        "lon": 121.09389
    },
    {
        "artist": "Wang Shimin",
        "year": "1680",
        "city": "Taicang",
        "country": "China",
        "lat": 31.44778,
        "lon": 121.09389
    },
    {
        "artist": "Wassily Kandinsky",
        "year": "1866",
        "city": "Moscow",
        "country": "Russia",
        "lat": 55.75222,
        "lon": 37.61556
    },
    {
        "artist": "Wassily Kandinsky",
        "year": "1944",
        "city": "Paris",
        "country": "France",
        "lat": 48.85341,
        "lon": 2.3488
    },
    {
        "artist": "Wen Zhengming",
        "year": "1470",
        "city": "Suzhou",
        "country": "China",
        "lat": 31.30408,
        "lon": 120.59538
    },
    {
        "artist": "Wen Zhengming",
        "year": "1559",
        "city": "Suzhou",
        "country": "China",
        "lat": 31.30408,
        "lon": 120.59538
    },
    {
        "artist": "Xia Chang",
        "year": "1388",
        "city": "Kunshan",
        "country": "China",
        "lat": 31.37762,
        "lon": 120.95431
    },
    {
        "artist": "Xia Chang",
        "year": "1470",
        "city": "Beijing",
        "country": "China",
        "lat": 39.9075,
        "lon": 116.39723
    },
    {
        "artist": "Barbara Hepworth",
        "year": "1903",
        "city": "Wakefield",
        "country": "United Kingdom",
        "lat": 53.68331,
        "lon": -1.49768
    },
    {
        "artist": "Barbara Hepworth",
        "year": "1975",
        "city": "St. Ives",
        "country": "United Kingdom",
        "lat": 50.20861,
        "lon": -5.4875
    },
    {
        "artist": "Carlo Carrà",
        "year": "1881",
        "city": "Alessandria",
        "country": "Italy",
        "lat": 44.90924,
        "lon": 8.61007
    },
    {
        "artist": "Carlo Carrà",
        "year": "1966",
        "city": "Milan",
        "country": "Italy",
        "lat": 45.46427,
        "lon": 9.18951
    },
    {
        "artist": "Georges Braque",
        "year": "1882",
        "city": "Paris",
        "country": "France",
        "lat": 48.85341,
        "lon": 2.3488
    },
    {
        "artist": "Georges Braque",
        "year": "1963",
        "city": "Paris",
        "country": "France",
        "lat": 48.85341,
        "lon": 2.3488
    },
    {
        "artist": "Henry Moore",
        "year": "1898",
        "city": "Castleford",
        "country": "United Kingdom",
        "lat": 53.72587,
        "lon": -1.36256
    },
    {
        "artist": "Henry Moore",
        "year": "1986",
        "city": "Sawbridgeworth",
        "country": "United Kingdom",
        "lat": 51.81667,
        "lon": 0.15
    },
    {
        "artist": "Isamu Noguchi",
        "year": "1904",
        "city": "Los Angeles",
        "country": "United States",
        "lat": 34.05223,
        "lon": -118.24368
    },
    {
        "artist": "Isamu Noguchi",
        "year": "2022",
        "city": "Los Angeles",
        "country": "United States",
        "lat": 34.05223,
        "lon": -118.24368
    },
    {
        "artist": "Jacob Epstein",
        "year": "1880",
        "city": "New York",
        "country": "United States",
        "lat": 40.71427,
        "lon": -74.00597
    },
    {
        "artist": "Jacob Epstein",
        "year": "1959",
        "city": "London",
        "country": "United Kingdom",
        "lat": 51.50853,
        "lon": -0.12574
    },
    {
        "artist": "Pieter Cornelis Mondriaan",
        "year": "1872",
        "city": "Amersfoot",
        "country": "Netherlands",
        "lat": 52.15,
        "lon": 5.383333
    },
    {
        "artist": "Pieter Cornelis Mondriaan",
        "year": "1944",
        "city": "New York",
        "country": "United States",
        "lat": 40.71427,
        "lon": -74.00597
    },
    {
        "artist": "Richard Wentworth",
        "year": "1947",
        "city": "Apia",
        "country": "Samoa",
        "lat": -13.83333,
        "lon": -171.76666
    },
    {
        "artist": "Richard Wentworth",
        "year": "2022",
        "city": "Apia",
        "country": "Samoa",
        "lat": -13.83333,
        "lon": -171.76666
    },
    {
        "artist": "Robert Rauschenberg",
        "year": "1925",
        "city": "Port Arthur",
        "country": "United States",
        "lat": 29.88519,
        "lon": -93.94233
    },
    {
        "artist": "Robert Rauschenberg",
        "year": "2008",
        "city": "Cape Coral",
        "country": "United States",
        "lat": 26.56285,
        "lon": -81.94953
    },
    {
        "artist": "Umberto Boccioni",
        "year": "1882",
        "city": "Reggio Calabria",
        "country": "Italy",
        "lat": 38.11047,
        "lon": 15.66129
    },
    {
        "artist": "Umberto Boccioni",
        "year": "1916",
        "city": "Verona",
        "country": "Italy",
        "lat": 45.4299,
        "lon": 10.98444
    },
    {
        "artist": "Domenico Ghirlandaio",
        "year": "1448",
        "city": "Florence",
        "country": "Italy",
        "lat": 43.77925,
        "lon": 11.24626
    },
    {
        "artist": "Domenico Ghirlandaio",
        "year": "1494",
        "city": "Florence",
        "country": "Italy",
        "lat": 43.77925,
        "lon": 11.24626
    },
    {
        "artist": "Daniele da Volterra",
        "year": "1509",
        "city": "Volterra",
        "country": "Italy",
        "lat": 43.40251,
        "lon": 10.86152
    },
    {
        "artist": "Daniele da Volterra",
        "year": "1566",
        "city": "Rome",
        "country": "Italy",
        "lat": 41.89193,
        "lon": 12.51133
    },
    {
        "artist": "Giotto",
        "year": "1267",
        "city": "Florence",
        "country": "Italy",
        "lat": 43.77925,
        "lon": 11.24626
    },
    {
        "artist": "Giotto",
        "year": "1337",
        "city": "Florence",
        "country": "Italy",
        "lat": 43.77925,
        "lon": 11.24626
    },
    {
        "artist": "Masaccio",
        "year": "1401",
        "city": "San Giovanni Valdarno",
        "country": "Italy",
        "lat": 43.564444,
        "lon": 11.532778
    },
    {
        "artist": "Masaccio",
        "year": "1428",
        "city": "Rome",
        "country": "Italy",
        "lat": 41.89193,
        "lon": 12.51133
    },
    {
        "artist": "Peter Paul Rubens",
        "year": "1577",
        "city": "Siegen",
        "country": "Germany",
        "lat": 50.87481,
        "lon": 8.02431
    },
    {
        "artist": "Peter Paul Rubens",
        "year": "1640",
        "city": "Antwerp",
        "country": "Belgium",
        "lat": 51.21989,
        "lon": 4.40346
    },
    {
        "artist": "Gherardo Starnina",
        "year": "1354",
        "city": "Florence",
        "country": "Italy",
        "lat": 43.77925,
        "lon": 11.24626
    },
    {
        "artist": "Gherardo Starnina",
        "year": "1413",
        "city": "Florence",
        "country": "Italy",
        "lat": 43.77925,
        "lon": 11.24626
    },
    {
        "artist": "Masolino",
        "year": "1383",
        "city": "Perugia",
        "country": "Italy",
        "lat": 43.1122,
        "lon": 12.38878
    },
    {
        "artist": "Masolino",
        "year": "1447",
        "city": "Florence",
        "country": "Italy",
        "lat": 43.77925,
        "lon": 11.24626
    },
    {
        "artist": "Michelozzo",
        "year": "1396",
        "city": "Florence",
        "country": "Italy",
        "lat": 43.77925,
        "lon": 11.24626
    },
    {
        "artist": "Michelozzo",
        "year": "1472",
        "city": "Florence",
        "country": "Italy",
        "lat": 43.77925,
        "lon": 11.24626
    },
    {
        "artist": "Paolo Uccello",
        "year": "1397",
        "city": "Perugia",
        "country": "Italy",
        "lat": 43.1122,
        "lon": 12.38878
    },
    {
        "artist": "Paolo Uccello",
        "year": "1475",
        "city": "Florence",
        "country": "Italy",
        "lat": 43.77925,
        "lon": 11.24626
    },
    {
        "artist": "Antonio del Pollaiuolo",
        "year": "1429",
        "city": "Florence",
        "country": "Italy",
        "lat": 43.77925,
        "lon": 11.24626
    },
    {
        "artist": "Antonio del Pollaiuolo",
        "year": "1498",
        "city": "Rome",
        "country": "Italy",
        "lat": 41.89193,
        "lon": 12.51133
    },
    {
        "artist": "Franz von Stuck",
        "year": "1863",
        "city": "Passau",
        "country": "Germany",
        "lat": 48.5665,
        "lon": 13.43122
    },
    {
        "artist": "Franz von Stuck",
        "year": "1928",
        "city": "Munich",
        "country": "Germany",
        "lat": 48.13743,
        "lon": 11.57549
    },
    {
        "artist": "Lorenzo Ghiberti",
        "year": "1378",
        "city": "Pelago",
        "country": "Italy",
        "lat": 43.77255,
        "lon": 11.50148
    },
    {
        "artist": "Lorenzo Ghiberti",
        "year": "1455",
        "city": "Florence",
        "country": "Italy",
        "lat": 43.77925,
        "lon": 11.24626
    }
]